{
  "区域二十八": [{
      "createtime": "2017-11-10 0:00:00",
      "hours": "744.0h",
      "name": "testecp001",
      "isFinish": "是",
      "number": "00000002",
      "creator": "wcadmin"
    },
    {
      "createtime": "2017-9-8 0:00:00",
      "hours": "45774.0h",
      "name": "testecp001",
      "isFinish": "否",
      "number": "00000003",
      "creator": "wcadmin"
    },
    {
      "createtime": "2017-9-8 0:00:00",
      "hours": "2256.0h",
      "name": "testecp002",
      "isFinish": "是",
      "number": "00000004",
      "creator": "wcadmin"
    },
    {
      "createtime": "2017-9-8 0:00:00",
      "hours": "46080.0h",
      "name": "testecp003",
      "isFinish": "否",
      "number": "00000005",
      "creator": "wcadmin"
    },
    {
      "createtime": "2017-9-8 0:00:00",
      "hours": "45774.0h",
      "name": "testecp004",
      "isFinish": "否",
      "number": "00000006",
      "creator": "wcadmin"
    },
    {
      "createtime": "2017-9-8 0:00:00",
      "hours": "2256.0h",
      "name": "testecp005",
      "isFinish": "是",
      "number": "00000007",
      "creator": "wcadmin"
    },
    {
      "createtime": "2017-9-8 0:00:00",
      "hours": "45774.0h",
      "name": "testecp006",
      "isFinish": "否",
      "number": "00000008",
      "creator": "wcadmin"
    },
    {
      "createtime": "2017-9-8 0:00:00",
      "hours": "46080.0h",
      "name": "testecp007",
      "isFinish": "否",
      "number": "00000009",
      "creator": "wcadmin"
    },
    {
      "createtime": "2017-9-8 0:00:00",
      "hours": "45774.0h",
      "name": "testecp008",
      "isFinish": "否",
      "number": "00000010",
      "creator": "wcadmin"
    },
    {
      "createtime": "2017-9-8 0:00:00",
      "hours": "2256.0h",
      "name": "testecp009",
      "isFinish": "是",
      "number": "00000011",
      "creator": "wcadmin"
    },
    {
      "createtime": "2017-9-8 0:00:00",
      "hours": "46080.0h",
      "name": "testecp010",
      "isFinish": "否",
      "number": "00000012",
      "creator": "wcadmin"
    }
  ]
}